[
    {
        "name": "تبريز",
        "province": "آذربايجان شرقی",
        "latitude": 38.5,
        "longitude": 46.18,
        "id": 1
    },
    {
        "name": "مراغه",
        "province": "آذربايجان شرقی",
        "latitude": 37.2335,
        "longitude": 46.1439,
        "id": 2
    },
    {
        "name": "ميانه",
        "province": "آذربايجان شرقی",
        "latitude": 37.23,
        "longitude": 47.45,
        "id": 3
    },
    {
        "name": "شبستر",
        "province": "آذربايجان شرقی",
        "latitude": 38.1048,
        "longitude": 45.429,
        "id": 4
    },
    {
        "name": "مرند",
        "province": "آذربايجان شرقی",
        "latitude": 38.26,
        "longitude": 45.47,
        "id": 5
    },
    {
        "name": "جلفا",
        "province": "آذربايجان شرقی",
        "latitude": 38.5622,
        "longitude": 45.3732,
        "id": 6
    },
    {
        "name": "سراب",
        "province": "آذربايجان شرقی",
        "latitude": 37.5629,
        "longitude": 47.321,
        "id": 7
    },
    {
        "name": "هاديشهر",
        "province": "آذربايجان شرقی",
        "latitude": 38.51,
        "longitude": 45.4,
        "id": 8
    },
    {
        "name": "بناب",
        "province": "آذربايجان شرقی",
        "latitude": 38.26,
        "longitude": 45.55,
        "id": 9
    },
    {
        "name": "تسوج",
        "province": "آذربايجان شرقی",
        "latitude": 38.1854,
        "longitude": 45.2136,
        "id": 10
    },
    {
        "name": "اهر",
        "province": "آذربايجان شرقی",
        "latitude": 38.2839,
        "longitude": 47.412,
        "id": 11
    },
    {
        "name": "هريس",
        "province": "آذربايجان شرقی",
        "latitude": 38.1445,
        "longitude": 47.659,
        "id": 12
    },
    {
        "name": "هشترود",
        "province": "آذربايجان شرقی",
        "latitude": 37.2849,
        "longitude": 47.257,
        "id": 13
    },
    {
        "name": "ملكان",
        "province": "آذربايجان شرقی",
        "latitude": 37.839,
        "longitude": 46.612,
        "id": 14
    },
    {
        "name": "بستان آباد",
        "province": "آذربايجان شرقی",
        "latitude": 37.5044,
        "longitude": 46.4951,
        "id": 15
    },
    {
        "name": "ورزقان",
        "province": "آذربايجان شرقی",
        "latitude": 38.3048,
        "longitude": 46.3931,
        "id": 16
    },
    {
        "name": "اسكو",
        "province": "آذربايجان شرقی",
        "latitude": 37.5458,
        "longitude": 46.724,
        "id": 17
    },
    {
        "name": "ممقان",
        "province": "آذربايجان شرقی",
        "latitude": 37.5045,
        "longitude": 45.5819,
        "id": 18
    },
    {
        "name": "صوفیان",
        "province": "آذربايجان شرقی",
        "latitude": 45.98,
        "longitude": 38.276,
        "id": 19
    },
    {
        "name": "ایلخچی",
        "province": "آذربايجان شرقی",
        "latitude": 45.98,
        "longitude": 37.939,
        "id": 20
    },
    {
        "name": "خسروشهر",
        "province": "آذربايجان شرقی",
        "latitude": 46.051,
        "longitude": 37.951,
        "id": 21
    },
    {
        "name": "باسمنج",
        "province": "آذربايجان شرقی",
        "latitude": 46.492,
        "longitude": 37.984,
        "id": 22
    },
    {
        "name": "سهند",
        "province": "آذربايجان شرقی",
        "latitude": 37.564,
        "longitude": 46.74,
        "id": 23
    },
    {
        "name": "اروميه",
        "province": "آذربايجان غربی",
        "latitude": 37.32,
        "longitude": 45.4,
        "id": 1
    },
    {
        "name": "نقده",
        "province": "آذربايجان غربی",
        "latitude": 36.5719,
        "longitude": 45.2332,
        "id": 2
    },
    {
        "name": "ماكو",
        "province": "آذربايجان غربی",
        "latitude": 39.1734,
        "longitude": 44.304,
        "id": 3
    },
    {
        "name": "تكاب",
        "province": "آذربايجان غربی",
        "latitude": 36.2353,
        "longitude": 47.76,
        "id": 4
    },
    {
        "name": "خوي",
        "province": "آذربايجان غربی",
        "latitude": 38.33,
        "longitude": 44.57,
        "id": 5
    },
    {
        "name": "مهاباد",
        "province": "آذربايجان غربی",
        "latitude": 36.45,
        "longitude": 45.43,
        "id": 6
    },
    {
        "name": "سر دشت",
        "province": "آذربايجان غربی",
        "latitude": 30.2,
        "longitude": 50.13,
        "id": 7
    },
    {
        "name": "چالدران",
        "province": "آذربايجان غربی",
        "latitude": 39.358,
        "longitude": 44.2312,
        "id": 8
    },
    {
        "name": "بوكان",
        "province": "آذربايجان غربی",
        "latitude": 36.3115,
        "longitude": 46.1226,
        "id": 9
    },
    {
        "name": "مياندوآب",
        "province": "آذربايجان غربی",
        "latitude": 36.586,
        "longitude": 46.612,
        "id": 10
    },
    {
        "name": "سلماس",
        "province": "آذربايجان غربی",
        "latitude": 38.12,
        "longitude": 44.46,
        "id": 11
    },
    {
        "name": "شاهين دژ",
        "province": "آذربايجان غربی",
        "latitude": 36.4,
        "longitude": 46.34,
        "id": 12
    },
    {
        "name": "پيرانشهر",
        "province": "آذربايجان غربی",
        "latitude": 36.4146,
        "longitude": 45.831,
        "id": 13
    },
    {
        "name": "اشنويه",
        "province": "آذربايجان غربی",
        "latitude": 37.3,
        "longitude": 45.7,
        "id": 14
    },
    {
        "name": "پلدشت",
        "province": "آذربايجان غربی",
        "latitude": 39.2026,
        "longitude": 45.357,
        "id": 15
    },
    {
        "name": "اردبيل",
        "province": "اردبيل",
        "latitude": 38.14,
        "longitude": 48.17,
        "id": 1
    },
    {
        "name": "پارس آباد",
        "province": "اردبيل",
        "latitude": 39.3827,
        "longitude": 47.5423,
        "id": 2
    },
    {
        "name": "خلخال",
        "province": "اردبيل",
        "latitude": 37.3732,
        "longitude": 48.3124,
        "id": 3
    },
    {
        "name": "مشگين شهر",
        "province": "اردبيل",
        "latitude": 38.24,
        "longitude": 47.39,
        "id": 4
    },
    {
        "name": "نمين",
        "province": "اردبيل",
        "latitude": 38.25,
        "longitude": 48.29,
        "id": 5
    },
    {
        "name": "نير",
        "province": "اردبيل",
        "latitude": 37.159,
        "longitude": 47.5954,
        "id": 6
    },
    {
        "name": "گرمي",
        "province": "اردبيل",
        "latitude": 39.116,
        "longitude": 48.449,
        "id": 7
    },
    {
        "name": "اصفهان",
        "province": "اصفهان",
        "latitude": 32.39,
        "longitude": 51.4,
        "id": 1
    },
    {
        "name": "فلاورجان",
        "province": "اصفهان",
        "latitude": 32.3332,
        "longitude": 51.3037,
        "id": 2
    },
    {
        "name": "گلپايگان",
        "province": "اصفهان",
        "latitude": 33.27,
        "longitude": 50.17,
        "id": 3
    },
    {
        "name": "دهاقان",
        "province": "اصفهان",
        "latitude": 31.56,
        "longitude": 51.39,
        "id": 4
    },
    {
        "name": "نطنز",
        "province": "اصفهان",
        "latitude": 33.3049,
        "longitude": 51.5455,
        "id": 5
    },
    {
        "name": "تيران",
        "province": "اصفهان",
        "latitude": 32.42,
        "longitude": 51.9,
        "id": 6
    },
    {
        "name": "كاشان",
        "province": "اصفهان",
        "latitude": 33.59,
        "longitude": 51.35,
        "id": 7
    },
    {
        "name": "اردستان",
        "province": "اصفهان",
        "latitude": 33.2228,
        "longitude": 52.2157,
        "id": 8
    },
    {
        "name": "سميرم",
        "province": "اصفهان",
        "latitude": 31.25,
        "longitude": 51.34,
        "id": 9
    },
    {
        "name": "درچه",
        "province": "اصفهان",
        "latitude": 32.3647,
        "longitude": 51.3311,
        "id": 10
    },
    {
        "name": "کوهپایه",
        "province": "اصفهان",
        "latitude": 32.436,
        "longitude": 52.2618,
        "id": 11
    },
    {
        "name": "مباركه",
        "province": "اصفهان",
        "latitude": 29.54,
        "longitude": 54.27,
        "id": 12
    },
    {
        "name": "شهرضا",
        "province": "اصفهان",
        "latitude": 31.5952,
        "longitude": 51.5129,
        "id": 13
    },
    {
        "name": "خميني شهر",
        "province": "اصفهان",
        "latitude": 32.41,
        "longitude": 51.32,
        "id": 14
    },
    {
        "name": "نجف آباد",
        "province": "اصفهان",
        "latitude": 32.38,
        "longitude": 51.23,
        "id": 15
    },
    {
        "name": "زرين شهر",
        "province": "اصفهان",
        "latitude": 32.2346,
        "longitude": 51.2248,
        "id": 16
    },
    {
        "name": "آران و بيدگل",
        "province": "اصفهان",
        "latitude": 34.338,
        "longitude": 51.2847,
        "id": 17
    },
    {
        "name": "باغ بهادران",
        "province": "اصفهان",
        "latitude": 51.19,
        "longitude": 32.376,
        "id": 18
    },
    {
        "name": "خوانسار",
        "province": "اصفهان",
        "latitude": 33.13,
        "longitude": 50.19,
        "id": 19
    },
    {
        "name": "علويجه",
        "province": "اصفهان",
        "latitude": 33.321,
        "longitude": 51.51,
        "id": 20
    },
    {
        "name": "عسگران",
        "province": "اصفهان",
        "latitude": 32.52,
        "longitude": 50.51,
        "id": 21
    },
    {
        "name": "حاجي آباد",
        "province": "اصفهان",
        "latitude": 33.3622,
        "longitude": 59.5957,
        "id": 22
    },
    {
        "name": "تودشک",
        "province": "اصفهان",
        "latitude": 32.4339,
        "longitude": 52.388,
        "id": 23
    },
    {
        "name": "ورزنه",
        "province": "اصفهان",
        "latitude": 32.2458,
        "longitude": 52.3813,
        "id": 24
    },
    {
        "name": "ايلام",
        "province": "ايلام",
        "latitude": 33.38,
        "longitude": 46.25,
        "id": 1
    },
    {
        "name": "مهران",
        "province": "ايلام",
        "latitude": 33.7,
        "longitude": 46.1,
        "id": 2
    },
    {
        "name": "دهلران",
        "province": "ايلام",
        "latitude": 32.41,
        "longitude": 47.16,
        "id": 3
    },
    {
        "name": "آبدانان",
        "province": "ايلام",
        "latitude": 32.593,
        "longitude": 47.2512,
        "id": 4
    },
    {
        "name": "دره شهر",
        "province": "ايلام",
        "latitude": 33.823,
        "longitude": 47.2233,
        "id": 5
    },
    {
        "name": "ايوان",
        "province": "ايلام",
        "latitude": 33.502,
        "longitude": 46.1833,
        "id": 6
    },
    {
        "name": "سرابله",
        "province": "ايلام",
        "latitude": 33.4611,
        "longitude": 46.3332,
        "id": 7
    },
    {
        "name": "بوشهر",
        "province": "بوشهر",
        "latitude": 28.59,
        "longitude": 50.5,
        "id": 1
    },
    {
        "name": "دير",
        "province": "بوشهر",
        "latitude": 27.51,
        "longitude": 51.59,
        "id": 2
    },
    {
        "name": "كنگان",
        "province": "بوشهر",
        "latitude": 27.5,
        "longitude": 52.4,
        "id": 3
    },
    {
        "name": "گناوه",
        "province": "بوشهر",
        "latitude": 29.34,
        "longitude": 50.31,
        "id": 4
    },
    {
        "name": "خورموج",
        "province": "بوشهر",
        "latitude": 51.38,
        "longitude": 28.655,
        "id": 5
    },
    {
        "name": "اهرم",
        "province": "بوشهر",
        "latitude": 28.53,
        "longitude": 51.16,
        "id": 6
    },
    {
        "name": "برازجان",
        "province": "بوشهر",
        "latitude": 29.16,
        "longitude": 51.12,
        "id": 7
    },
    {
        "name": "جم",
        "province": "بوشهر",
        "latitude": 27.49,
        "longitude": 52.2,
        "id": 8
    },
    {
        "name": "کاکی",
        "province": "بوشهر",
        "latitude": 28.2,
        "longitude": 51.31,
        "id": 9
    },
    {
        "name": "عسلویه",
        "province": "بوشهر",
        "latitude": 27.2835,
        "longitude": 52.365,
        "id": 10
    },
    {
        "name": "تهران",
        "province": "تهران",
        "latitude": 35.41,
        "longitude": 51.24,
        "id": 1
    },
    {
        "name": "ورامين",
        "province": "تهران",
        "latitude": 35.2,
        "longitude": 51.38,
        "id": 2
    },
    {
        "name": "فيروزكوه",
        "province": "تهران",
        "latitude": 35.45,
        "longitude": 52.46,
        "id": 3
    },
    {
        "name": "ري",
        "province": "تهران",
        "latitude": 35.358,
        "longitude": 51.269,
        "id": 4
    },
    {
        "name": "دماوند",
        "province": "تهران",
        "latitude": 35.43,
        "longitude": 52.4,
        "id": 5
    },
    {
        "name": "اسلامشهر",
        "province": "تهران",
        "latitude": 51.232,
        "longitude": 35.552,
        "id": 6
    },
    {
        "name": "رودهن",
        "province": "تهران",
        "latitude": 35.4412,
        "longitude": 51.5441,
        "id": 7
    },
    {
        "name": "لواسان",
        "province": "تهران",
        "latitude": 51.783,
        "longitude": 35.825,
        "id": 8
    },
    {
        "name": "بومهن",
        "province": "تهران",
        "latitude": 35.4347,
        "longitude": 51.5143,
        "id": 9
    },
    {
        "name": "تجريش",
        "province": "تهران",
        "latitude": 35.4816,
        "longitude": 51.2532,
        "id": 10
    },
    {
        "name": "فشم",
        "province": "تهران",
        "latitude": 51.526,
        "longitude": 35.931,
        "id": 11
    },
    {
        "name": "كهريزك",
        "province": "تهران",
        "latitude": 35.3103,
        "longitude": 51.2135,
        "id": 12
    },
    {
        "name": "پاكدشت",
        "province": "تهران",
        "latitude": 35.2854,
        "longitude": 51.4049,
        "id": 13
    },
    {
        "name": "چهاردانگه",
        "province": "تهران",
        "latitude": 51.309,
        "longitude": 35.604,
        "id": 14
    },
    {
        "name": "شريف آباد",
        "province": "تهران",
        "latitude": 35.2539,
        "longitude": 51.4707,
        "id": 15
    },
    {
        "name": "قرچك",
        "province": "تهران",
        "latitude": 35.261,
        "longitude": 51.342,
        "id": 16
    },
    {
        "name": "باقرشهر",
        "province": "تهران",
        "latitude": 35.3157,
        "longitude": 51.2409,
        "id": 17
    },
    {
        "name": "شهريار",
        "province": "تهران",
        "latitude": 35.3927,
        "longitude": 51.335,
        "id": 18
    },
    {
        "name": "رباط كريم",
        "province": "تهران",
        "latitude": 35.2843,
        "longitude": 51.449,
        "id": 19
    },
    {
        "name": "قدس",
        "province": "تهران",
        "latitude": 35.4317,
        "longitude": 51.632,
        "id": 20
    },
    {
        "name": "ملارد",
        "province": "تهران",
        "latitude": 35.3927,
        "longitude": 50.5835,
        "id": 21
    },
    {
        "name": "شهركرد",
        "province": "چهارمحال بختیاری",
        "latitude": 32.19,
        "longitude": 50.51,
        "id": 1
    },
    {
        "name": "فارسان",
        "province": "چهارمحال بختیاری",
        "latitude": 32.1527,
        "longitude": 50.3341,
        "id": 2
    },
    {
        "name": "بروجن",
        "province": "چهارمحال بختیاری",
        "latitude": 31.58,
        "longitude": 51.17,
        "id": 3
    },
    {
        "name": "چلگرد",
        "province": "چهارمحال بختیاری",
        "latitude": 50.138,
        "longitude": 32.462,
        "id": 4
    },
    {
        "name": "اردل",
        "province": "چهارمحال بختیاری",
        "latitude": 31.5958,
        "longitude": 50.3935,
        "id": 5
    },
    {
        "name": "لردگان",
        "province": "چهارمحال بختیاری",
        "latitude": 31.31,
        "longitude": 50.5,
        "id": 6
    },
    {
        "name": "قائن",
        "province": "خراسان جنوبی",
        "latitude": 33.43,
        "longitude": 59.6,
        "id": 1
    },
    {
        "name": "فردوس",
        "province": "خراسان جنوبی",
        "latitude": 34.0,
        "longitude": 58.9,
        "id": 2
    },
    {
        "name": "بيرجند",
        "province": "خراسان جنوبی",
        "latitude": 32.5216,
        "longitude": 59.1315,
        "id": 3
    },
    {
        "name": "نهبندان",
        "province": "خراسان جنوبی",
        "latitude": 31.32,
        "longitude": 60.2,
        "id": 4
    },
    {
        "name": "سربيشه",
        "province": "خراسان جنوبی",
        "latitude": 32.3432,
        "longitude": 59.4755,
        "id": 5
    },
    {
        "name": "طبس",
        "province": "خراسان جنوبی",
        "latitude": 33.6033,
        "longitude": 56.9324,
        "id": 6
    },
    {
        "name": "مشهد",
        "province": "خراسان رضوی",
        "latitude": 36.17,
        "longitude": 59.35,
        "id": 1
    },
    {
        "name": "نيشابور",
        "province": "خراسان رضوی",
        "latitude": 36.13,
        "longitude": 58.49,
        "id": 2
    },
    {
        "name": "سبزوار",
        "province": "خراسان رضوی",
        "latitude": 36.13,
        "longitude": 57.4,
        "id": 3
    },
    {
        "name": "كاشمر",
        "province": "خراسان رضوی",
        "latitude": 35.144,
        "longitude": 58.2738,
        "id": 4
    },
    {
        "name": "گناباد",
        "province": "خراسان رضوی",
        "latitude": 34.2141,
        "longitude": 58.4157,
        "id": 5
    },
    {
        "name": "تربت حيدريه",
        "province": "خراسان رضوی",
        "latitude": 35.1627,
        "longitude": 59.139,
        "id": 7
    },
    {
        "name": "خواف",
        "province": "خراسان رضوی",
        "latitude": 34.32,
        "longitude": 60.5,
        "id": 8
    },
    {
        "name": "تربت جام",
        "province": "خراسان رضوی",
        "latitude": 35.16,
        "longitude": 60.36,
        "id": 9
    },
    {
        "name": "تايباد",
        "province": "خراسان رضوی",
        "latitude": 34.44,
        "longitude": 60.47,
        "id": 10
    },
    {
        "name": "قوچان",
        "province": "خراسان رضوی",
        "latitude": 37.4,
        "longitude": 58.32,
        "id": 11
    },
    {
        "name": "سرخس",
        "province": "خراسان رضوی",
        "latitude": 36.32,
        "longitude": 61.1,
        "id": 12
    },
    {
        "name": "فريمان",
        "province": "خراسان رضوی",
        "latitude": 35.46,
        "longitude": 59.49,
        "id": 13
    },
    {
        "name": "چناران",
        "province": "خراسان رضوی",
        "latitude": 59.121,
        "longitude": 36.642,
        "id": 14
    },
    {
        "name": "درگز",
        "province": "خراسان رضوی",
        "latitude": 37.264,
        "longitude": 59.628,
        "id": 15
    },
    {
        "name": "طرقبه",
        "province": "خراسان رضوی",
        "latitude": 36.1837,
        "longitude": 59.2225,
        "id": 16
    },
    {
        "name": "بجنورد",
        "province": "خراسان شمالی",
        "latitude": 37.2835,
        "longitude": 57.1954,
        "id": 1
    },
    {
        "name": "اسفراين",
        "province": "خراسان شمالی",
        "latitude": 37.436,
        "longitude": 57.3035,
        "id": 2
    },
    {
        "name": "جاجرم",
        "province": "خراسان شمالی",
        "latitude": 36.573,
        "longitude": 56.2244,
        "id": 3
    },
    {
        "name": "شيروان",
        "province": "خراسان شمالی",
        "latitude": 33.34,
        "longitude": 46.52,
        "id": 4
    },
    {
        "name": "آشخانه",
        "province": "خراسان شمالی",
        "latitude": 37.3352,
        "longitude": 56.556,
        "id": 5
    },
    {
        "name": "اهواز",
        "province": "خوزستان",
        "latitude": 31.19,
        "longitude": 48.41,
        "id": 1
    },
    {
        "name": "ايرانشهر",
        "province": "خوزستان",
        "latitude": 27.15,
        "longitude": 60.41,
        "id": 2
    },
    {
        "name": "شوش",
        "province": "خوزستان",
        "latitude": 32.12,
        "longitude": 48.15,
        "id": 3
    },
    {
        "name": "آبادان",
        "province": "خوزستان",
        "latitude": 30.2024,
        "longitude": 48.1814,
        "id": 4
    },
    {
        "name": "خرمشهر",
        "province": "خوزستان",
        "latitude": 30.2539,
        "longitude": 48.118,
        "id": 5
    },
    {
        "name": "مسجد سليمان",
        "province": "خوزستان",
        "latitude": 31.59,
        "longitude": 49.18,
        "id": 6
    },
    {
        "name": "ايذه",
        "province": "خوزستان",
        "latitude": 31.5,
        "longitude": 49.52,
        "id": 7
    },
    {
        "name": "شوشتر",
        "province": "خوزستان",
        "latitude": 32.3,
        "longitude": 48.51,
        "id": 8
    },
    {
        "name": "انديمشك",
        "province": "خوزستان",
        "latitude": 32.27,
        "longitude": 48.2,
        "id": 9
    },
    {
        "name": "سوسنگرد",
        "province": "خوزستان",
        "latitude": 31.4,
        "longitude": 48.6,
        "id": 10
    },
    {
        "name": "هويزه",
        "province": "خوزستان",
        "latitude": 31.274,
        "longitude": 48.428,
        "id": 11
    },
    {
        "name": "دزفول",
        "province": "خوزستان",
        "latitude": 32.2255,
        "longitude": 48.2411,
        "id": 12
    },
    {
        "name": "شادگان",
        "province": "خوزستان",
        "latitude": 30.39,
        "longitude": 48.4,
        "id": 13
    },
    {
        "name": "بندر ماهشهر",
        "province": "خوزستان",
        "latitude": 30.34,
        "longitude": 49.1,
        "id": 14
    },
    {
        "name": "بندر امام خميني",
        "province": "خوزستان",
        "latitude": 30.25,
        "longitude": 49.2,
        "id": 15
    },
    {
        "name": "بهبهان",
        "province": "خوزستان",
        "latitude": 30.36,
        "longitude": 50.15,
        "id": 16
    },
    {
        "name": "رامهرمز",
        "province": "خوزستان",
        "latitude": 31.17,
        "longitude": 49.36,
        "id": 17
    },
    {
        "name": "باغ ملك",
        "province": "خوزستان",
        "latitude": 31.31,
        "longitude": 49.53,
        "id": 18
    },
    {
        "name": "هنديجان",
        "province": "خوزستان",
        "latitude": 30.14,
        "longitude": 49.43,
        "id": 19
    },
    {
        "name": "لالي",
        "province": "خوزستان",
        "latitude": 32.1947,
        "longitude": 49.538,
        "id": 20
    },
    {
        "name": "رامشیر",
        "province": "خوزستان",
        "latitude": 30.5335,
        "longitude": 49.2425,
        "id": 21
    },
    {
        "name": "حمیدیه",
        "province": "خوزستان",
        "latitude": 31.29,
        "longitude": 48.26,
        "id": 22
    },
    {
        "name": "ملاثانی",
        "province": "خوزستان",
        "latitude": 31.356,
        "longitude": 48.531,
        "id": 23
    },
    {
        "name": "شادگان",
        "province": "خوزستان",
        "latitude": 30.39,
        "longitude": 48.4,
        "id": 24
    },
    {
        "name": "زنجان",
        "province": "زنجان",
        "latitude": 36.4,
        "longitude": 48.29,
        "id": 1
    },
    {
        "name": "ابهر",
        "province": "زنجان",
        "latitude": 36.8,
        "longitude": 49.13,
        "id": 2
    },
    {
        "name": "خدابنده",
        "province": "زنجان",
        "latitude": 36.0,
        "longitude": 48.3,
        "id": 3
    },
    {
        "name": "ماهنشان",
        "province": "زنجان",
        "latitude": 36.444,
        "longitude": 47.4022,
        "id": 4
    },
    {
        "name": "خرمدره",
        "province": "زنجان",
        "latitude": 36.124,
        "longitude": 49.1147,
        "id": 5
    },
    {
        "name": "آب بر",
        "province": "زنجان",
        "latitude": 36.55,
        "longitude": 48.58,
        "id": 6
    },
    {
        "name": "قيدار",
        "province": "زنجان",
        "latitude": 36.717,
        "longitude": 48.3528,
        "id": 7
    },
    {
        "name": "سمنان",
        "province": "سمنان",
        "latitude": 35.34,
        "longitude": 53.23,
        "id": 1
    },
    {
        "name": "شاهرود",
        "province": "سمنان",
        "latitude": 36.25,
        "longitude": 55.0,
        "id": 2
    },
    {
        "name": "گرمسار",
        "province": "سمنان",
        "latitude": 35.15,
        "longitude": 52.2,
        "id": 3
    },
    {
        "name": "ايوانكي",
        "province": "سمنان",
        "latitude": 35.21,
        "longitude": 52.4,
        "id": 4
    },
    {
        "name": "دامغان",
        "province": "سمنان",
        "latitude": 36.9,
        "longitude": 54.22,
        "id": 5
    },
    {
        "name": "بسطام",
        "province": "سمنان",
        "latitude": 36.293,
        "longitude": 54.5956,
        "id": 6
    },
    {
        "name": "زاهدان",
        "province": "سيستان و بلوچستان",
        "latitude": 29.32,
        "longitude": 60.54,
        "id": 1
    },
    {
        "name": "چابهار",
        "province": "سيستان و بلوچستان",
        "latitude": 60.634,
        "longitude": 25.296,
        "id": 2
    },
    {
        "name": "خاش",
        "province": "سيستان و بلوچستان",
        "latitude": 28.13,
        "longitude": 61.13,
        "id": 3
    },
    {
        "name": "سراوان",
        "province": "سيستان و بلوچستان",
        "latitude": 27.2214,
        "longitude": 62.203,
        "id": 4
    },
    {
        "name": "زابل",
        "province": "سيستان و بلوچستان",
        "latitude": 31.0,
        "longitude": 61.32,
        "id": 5
    },
    {
        "name": "سرباز",
        "province": "سيستان و بلوچستان",
        "latitude": 26.4,
        "longitude": 61.2,
        "id": 6
    },
    {
        "name": "ايرانشهر",
        "province": "سيستان و بلوچستان",
        "latitude": 27.15,
        "longitude": 60.41,
        "id": 7
    },
    {
        "name": "ميرجاوه",
        "province": "سيستان و بلوچستان",
        "latitude": 29.1,
        "longitude": 61.3,
        "id": 8
    },
    {
        "name": "شيراز",
        "province": "فارس",
        "latitude": 29.36,
        "longitude": 52.31,
        "id": 1
    },
    {
        "name": "اقليد",
        "province": "فارس",
        "latitude": 30.53,
        "longitude": 52.41,
        "id": 2
    },
    {
        "name": "داراب",
        "province": "فارس",
        "latitude": 28.45,
        "longitude": 54.33,
        "id": 3
    },
    {
        "name": "فسا",
        "province": "فارس",
        "latitude": 28.55,
        "longitude": 53.39,
        "id": 4
    },
    {
        "name": "مرودشت",
        "province": "فارس",
        "latitude": 52.802,
        "longitude": 29.874,
        "id": 5
    },
    {
        "name": "آباده",
        "province": "فارس",
        "latitude": 31.6,
        "longitude": 52.4,
        "id": 6
    },
    {
        "name": "كازرون",
        "province": "فارس",
        "latitude": 29.35,
        "longitude": 51.4,
        "id": 7
    },
    {
        "name": "سپيدان",
        "province": "فارس",
        "latitude": 30.1432,
        "longitude": 51.5938,
        "id": 8
    },
    {
        "name": "لار",
        "province": "فارس",
        "latitude": 27.42,
        "longitude": 54.19,
        "id": 9
    },
    {
        "name": "فيروز آباد",
        "province": "فارس",
        "latitude": 26.17,
        "longitude": 61.25,
        "id": 10
    },
    {
        "name": "جهرم",
        "province": "فارس",
        "latitude": 28.29,
        "longitude": 53.32,
        "id": 11
    },
    {
        "name": "استهبان",
        "province": "فارس",
        "latitude": 29.8,
        "longitude": 54.2,
        "id": 12
    },
    {
        "name": "لامرد",
        "province": "فارس",
        "latitude": 27.3,
        "longitude": 53.2,
        "id": 13
    },
    {
        "name": "مهر",
        "province": "فارس",
        "latitude": 27.33,
        "longitude": 52.53,
        "id": 14
    },
    {
        "name": "حاجي آباد",
        "province": "فارس",
        "latitude": 33.3622,
        "longitude": 59.5957,
        "id": 15
    },
    {
        "name": "اردكان",
        "province": "فارس",
        "latitude": 32.2,
        "longitude": 53.59,
        "id": 16
    },
    {
        "name": "صفاشهر",
        "province": "فارس",
        "latitude": 30.3446,
        "longitude": 53.84,
        "id": 17
    },
    {
        "name": "ارسنجان",
        "province": "فارس",
        "latitude": 29.55,
        "longitude": 53.1743,
        "id": 18
    },
    {
        "name": "سوريان",
        "province": "فارس",
        "latitude": 30.2749,
        "longitude": 53.2648,
        "id": 19
    },
    {
        "name": "فراشبند",
        "province": "فارس",
        "latitude": 28.53,
        "longitude": 52.7,
        "id": 20
    },
    {
        "name": "سروستان",
        "province": "فارس",
        "latitude": 29.16,
        "longitude": 53.13,
        "id": 21
    },
    {
        "name": "زرقان",
        "province": "فارس",
        "latitude": 29.4628,
        "longitude": 52.4329,
        "id": 22
    },
    {
        "name": "کوار",
        "province": "فارس",
        "latitude": 29.1217,
        "longitude": 52.4124,
        "id": 23
    },
    {
        "name": "بوانات",
        "province": "فارس",
        "latitude": 30.2915,
        "longitude": 53.3534,
        "id": 24
    },
    {
        "name": "خرامه",
        "province": "فارس",
        "latitude": 53.321,
        "longitude": 29.501,
        "id": 25
    },
    {
        "name": "خنج",
        "province": "فارس",
        "latitude": 27.53,
        "longitude": 53.26,
        "id": 26
    },
    {
        "name": "قزوين",
        "province": "قزوين",
        "latitude": 36.167,
        "longitude": 50.01,
        "id": 1
    },
    {
        "name": "تاكستان",
        "province": "قزوين",
        "latitude": 36.2,
        "longitude": 49.4,
        "id": 2
    },
    {
        "name": "آبيك",
        "province": "قزوين",
        "latitude": 36.3,
        "longitude": 50.31,
        "id": 3
    },
    {
        "name": "بوئين زهرا",
        "province": "قزوين",
        "latitude": 35.466,
        "longitude": 50.331,
        "id": 4
    },
    {
        "name": "قم",
        "province": "قم",
        "latitude": 34.38,
        "longitude": 50.53,
        "id": 1
    },
    {
        "name": "قنوات",
        "province": "قم",
        "latitude": 34.613,
        "longitude": 51.025,
        "id": 2
    },
    {
        "name": "جعفریه",
        "province": "قم",
        "latitude": 34.774,
        "longitude": 50.516,
        "id": 3
    },
    {
        "name": "کهک",
        "province": "قم",
        "latitude": 34.392,
        "longitude": 50.863,
        "id": 4
    },
    {
        "name": "دستجرد",
        "province": "قم",
        "latitude": 34.549,
        "longitude": 50.247,
        "id": 5
    },
    {
        "name": "سلفچگان",
        "province": "قم",
        "latitude": 34.477,
        "longitude": 50.458,
        "id": 6
    },
    {
        "name": "کرج",
        "province": "البرز",
        "latitude": 35.84,
        "longitude": 50.9391,
        "id": 1
    },
    {
        "name": "طالقان",
        "province": "البرز",
        "latitude": 36.1,
        "longitude": 50.445,
        "id": 2
    },
    {
        "name": "نظرآباد",
        "province": "البرز",
        "latitude": 50.608,
        "longitude": 35.956,
        "id": 3
    },
    {
        "name": "اشتهارد",
        "province": "البرز",
        "latitude": 35.43,
        "longitude": 50.22,
        "id": 4
    },
    {
        "name": "هشتگرد",
        "province": "البرز",
        "latitude": 35.5742,
        "longitude": 50.4048,
        "id": 5
    },
    {
        "name": "كرج",
        "province": "البرز",
        "latitude": 35.49,
        "longitude": 50.58,
        "id": 6
    },
    {
        "name": "ماهدشت",
        "province": "البرز",
        "latitude": 50.813,
        "longitude": 35.727,
        "id": 7
    },
    {
        "name": "سنندج",
        "province": "كردستان",
        "latitude": 35.18,
        "longitude": 47.1,
        "id": 1
    },
    {
        "name": "بانه",
        "province": "كردستان",
        "latitude": 35.59,
        "longitude": 45.54,
        "id": 2
    },
    {
        "name": "بيجار",
        "province": "كردستان",
        "latitude": 35.52,
        "longitude": 47.39,
        "id": 3
    },
    {
        "name": "سقز",
        "province": "كردستان",
        "latitude": 36.14,
        "longitude": 46.15,
        "id": 4
    },
    {
        "name": "قروه",
        "province": "كردستان",
        "latitude": 35.9,
        "longitude": 47.48,
        "id": 5
    },
    {
        "name": "مريوان",
        "province": "كردستان",
        "latitude": 35.31,
        "longitude": 46.1,
        "id": 6
    },
    {
        "name": "صلوات آباد",
        "province": "كردستان",
        "latitude": 35.16,
        "longitude": 47.7,
        "id": 7
    },
    {
        "name": "حسن آباد",
        "province": "كردستان",
        "latitude": 35.222,
        "longitude": 51.1412,
        "id": 8
    },
    {
        "name": "کرمان",
        "province": "کرمان",
        "latitude": 30.16,
        "longitude": 57.4,
        "id": 1
    },
    {
        "name": "راور",
        "province": "کرمان",
        "latitude": 31.15,
        "longitude": 56.51,
        "id": 2
    },
    {
        "name": "انار",
        "province": "کرمان",
        "latitude": 30.55,
        "longitude": 55.15,
        "id": 3
    },
    {
        "name": "کوهبنان",
        "province": "کرمان",
        "latitude": 31.25,
        "longitude": 56.17,
        "id": 4
    },
    {
        "name": "رفسنجان",
        "province": "کرمان",
        "latitude": 30.25,
        "longitude": 56.0,
        "id": 5
    },
    {
        "name": "بافت",
        "province": "کرمان",
        "latitude": 29.12,
        "longitude": 56.36,
        "id": 6
    },
    {
        "name": "سيرجان",
        "province": "کرمان",
        "latitude": 29.27,
        "longitude": 55.4,
        "id": 7
    },
    {
        "name": "كهنوج",
        "province": "کرمان",
        "latitude": 27.5653,
        "longitude": 57.4155,
        "id": 8
    },
    {
        "name": "زرند",
        "province": "کرمان",
        "latitude": 30.5,
        "longitude": 56.35,
        "id": 9
    },
    {
        "name": "بم",
        "province": "کرمان",
        "latitude": 29.7,
        "longitude": 58.2,
        "id": 10
    },
    {
        "name": "جيرفت",
        "province": "کرمان",
        "latitude": 28.4,
        "longitude": 57.44,
        "id": 11
    },
    {
        "name": "بردسير",
        "province": "کرمان",
        "latitude": 29.5541,
        "longitude": 56.3427,
        "id": 12
    },
    {
        "name": "كرمانشاه",
        "province": "كرمانشاه",
        "latitude": 34.18,
        "longitude": 47.3,
        "id": 1
    },
    {
        "name": "اسلام آباد غرب",
        "province": "كرمانشاه",
        "latitude": 46.528,
        "longitude": 34.111,
        "id": 2
    },
    {
        "name": "كنگاور",
        "province": "كرمانشاه",
        "latitude": 34.29,
        "longitude": 47.55,
        "id": 3
    },
    {
        "name": "سنقر",
        "province": "كرمانشاه",
        "latitude": 34.47,
        "longitude": 47.36,
        "id": 4
    },
    {
        "name": "قصر شيرين",
        "province": "كرمانشاه",
        "latitude": 34.31,
        "longitude": 45.35,
        "id": 5
    },
    {
        "name": "هرسين",
        "province": "كرمانشاه",
        "latitude": 34.16,
        "longitude": 47.35,
        "id": 6
    },
    {
        "name": "صحنه",
        "province": "كرمانشاه",
        "latitude": 34.29,
        "longitude": 47.41,
        "id": 7
    },
    {
        "name": "پاوه",
        "province": "كرمانشاه",
        "latitude": 35.3,
        "longitude": 46.22,
        "id": 8
    },
    {
        "name": "جوانرود",
        "province": "كرمانشاه",
        "latitude": 34.4823,
        "longitude": 46.3023,
        "id": 9
    },
    {
        "name": "ياسوج",
        "province": "کهگیلویه و بويراحمد",
        "latitude": 30.39,
        "longitude": 51.35,
        "id": 1
    },
    {
        "name": "گچساران",
        "province": "کهگیلویه و بويراحمد",
        "latitude": 30.2128,
        "longitude": 50.4757,
        "id": 2
    },
    {
        "name": "دوگنبدان",
        "province": "کهگیلویه و بويراحمد",
        "latitude": 50.792,
        "longitude": 30.357,
        "id": 3
    },
    {
        "name": "سي سخت",
        "province": "کهگیلویه و بويراحمد",
        "latitude": 30.52,
        "longitude": 51.27,
        "id": 4
    },
    {
        "name": "دهدشت",
        "province": "کهگیلویه و بويراحمد",
        "latitude": 30.4741,
        "longitude": 50.3352,
        "id": 5
    },
    {
        "name": "گرگان",
        "province": "گلستان",
        "latitude": 36.5,
        "longitude": 54.25,
        "id": 1
    },
    {
        "name": "آق قلا",
        "province": "گلستان",
        "latitude": 37.1,
        "longitude": 54.2757,
        "id": 2
    },
    {
        "name": "گنبد كاووس",
        "province": "گلستان",
        "latitude": 37.15,
        "longitude": 55.1,
        "id": 3
    },
    {
        "name": "علي آباد كتول",
        "province": "گلستان",
        "latitude": 36.5429,
        "longitude": 54.5148,
        "id": 4
    },
    {
        "name": "كردكوی",
        "province": "گلستان",
        "latitude": 36.4748,
        "longitude": 54.655,
        "id": 5
    },
    {
        "name": "كلاله",
        "province": "گلستان",
        "latitude": 37.2251,
        "longitude": 55.293,
        "id": 6
    },
    {
        "name": "آزاد شهر",
        "province": "گلستان",
        "latitude": 37.5,
        "longitude": 55.1,
        "id": 7
    },
    {
        "name": "راميان",
        "province": "گلستان",
        "latitude": 37.024,
        "longitude": 55.835,
        "id": 8
    },
    {
        "name": "رشت",
        "province": "گيلان",
        "latitude": 37.16,
        "longitude": 49.35,
        "id": 1
    },
    {
        "name": "منجيل",
        "province": "گيلان",
        "latitude": 36.44,
        "longitude": 49.25,
        "id": 2
    },
    {
        "name": "لنگرود",
        "province": "گيلان",
        "latitude": 37.12,
        "longitude": 50.9,
        "id": 3
    },
    {
        "name": "تالش",
        "province": "گيلان",
        "latitude": 37.484,
        "longitude": 48.5428,
        "id": 4
    },
    {
        "name": "آستارا",
        "province": "گيلان",
        "latitude": 38.2518,
        "longitude": 48.5221,
        "id": 5
    },
    {
        "name": "ماسوله",
        "province": "گيلان",
        "latitude": 48.99,
        "longitude": 37.156,
        "id": 6
    },
    {
        "name": "رودبار",
        "province": "گيلان",
        "latitude": 36.492,
        "longitude": 49.2533,
        "id": 7
    },
    {
        "name": "فومن",
        "province": "گيلان",
        "latitude": 37.15,
        "longitude": 49.19,
        "id": 8
    },
    {
        "name": "صومعه سرا",
        "province": "گيلان",
        "latitude": 37.18,
        "longitude": 49.18,
        "id": 9
    },
    {
        "name": "هشتپر",
        "province": "گيلان",
        "latitude": 48.907,
        "longitude": 37.797,
        "id": 10
    },
    {
        "name": "ماسال",
        "province": "گيلان",
        "latitude": 37.2249,
        "longitude": 49.633,
        "id": 11
    },
    {
        "name": "شفت",
        "province": "گيلان",
        "latitude": 37.9,
        "longitude": 49.24,
        "id": 12
    },
    {
        "name": "املش",
        "province": "گيلان",
        "latitude": 37.52,
        "longitude": 50.1114,
        "id": 13
    },
    {
        "name": "لاهیجان",
        "province": "گيلان",
        "latitude": 37.13,
        "longitude": 50.0,
        "id": 14
    },
    {
        "name": "خرم آباد",
        "province": "لرستان",
        "latitude": 33.29,
        "longitude": 48.21,
        "id": 1
    },
    {
        "name": "ماهشهر",
        "province": "لرستان",
        "latitude": 49.18,
        "longitude": 30.546,
        "id": 2
    },
    {
        "name": "دزفول",
        "province": "لرستان",
        "latitude": 32.2255,
        "longitude": 48.2411,
        "id": 3
    },
    {
        "name": "بروجرد",
        "province": "لرستان",
        "latitude": 33.55,
        "longitude": 48.48,
        "id": 4
    },
    {
        "name": "دورود",
        "province": "لرستان",
        "latitude": 33.294,
        "longitude": 49.425,
        "id": 5
    },
    {
        "name": "اليگودرز",
        "province": "لرستان",
        "latitude": 33.23,
        "longitude": 49.42,
        "id": 6
    },
    {
        "name": "ازنا",
        "province": "لرستان",
        "latitude": 33.2713,
        "longitude": 49.279,
        "id": 7
    },
    {
        "name": "نور آباد",
        "province": "لرستان",
        "latitude": 47.972,
        "longitude": 34.074,
        "id": 8
    },
    {
        "name": "كوهدشت",
        "province": "لرستان",
        "latitude": 33.32,
        "longitude": 47.36,
        "id": 9
    },
    {
        "name": "الشتر",
        "province": "لرستان",
        "latitude": 33.522,
        "longitude": 48.1546,
        "id": 10
    },
    {
        "name": "ساري",
        "province": "مازندران",
        "latitude": 36.33,
        "longitude": 53.3,
        "id": 1
    },
    {
        "name": "آمل",
        "province": "مازندران",
        "latitude": 36.28,
        "longitude": 52.22,
        "id": 2
    },
    {
        "name": "بابل",
        "province": "مازندران",
        "latitude": 36.33,
        "longitude": 52.41,
        "id": 3
    },
    {
        "name": "بابلسر",
        "province": "مازندران",
        "latitude": 36.42,
        "longitude": 52.39,
        "id": 4
    },
    {
        "name": "بهشهر",
        "province": "مازندران",
        "latitude": 36.42,
        "longitude": 53.33,
        "id": 5
    },
    {
        "name": "تنكابن",
        "province": "مازندران",
        "latitude": 36.49,
        "longitude": 50.53,
        "id": 6
    },
    {
        "name": "جويبار",
        "province": "مازندران",
        "latitude": 36.38,
        "longitude": 52.55,
        "id": 7
    },
    {
        "name": "چالوس",
        "province": "مازندران",
        "latitude": 36.39,
        "longitude": 51.25,
        "id": 8
    },
    {
        "name": "رامسر",
        "province": "مازندران",
        "latitude": 37.5426,
        "longitude": 50.3944,
        "id": 9
    },
    {
        "name": "قائم شهر",
        "province": "مازندران",
        "latitude": 52.859,
        "longitude": 36.466,
        "id": 10
    },
    {
        "name": "نكا",
        "province": "مازندران",
        "latitude": 36.39,
        "longitude": 53.18,
        "id": 11
    },
    {
        "name": "نور",
        "province": "مازندران",
        "latitude": 36.341,
        "longitude": 52.049,
        "id": 12
    },
    {
        "name": "بلده",
        "province": "مازندران",
        "latitude": 36.12,
        "longitude": 51.49,
        "id": 13
    },
    {
        "name": "نوشهر",
        "province": "مازندران",
        "latitude": 36.39,
        "longitude": 51.3,
        "id": 14
    },
    {
        "name": "محمود آباد",
        "province": "مازندران",
        "latitude": 52.278,
        "longitude": 36.634,
        "id": 15
    },
    {
        "name": "اراک",
        "province": "مرکزی",
        "latitude": 34.5,
        "longitude": 49.41,
        "id": 1
    },
    {
        "name": "آشتيان",
        "province": "مرکزی",
        "latitude": 34.32,
        "longitude": 50.0,
        "id": 2
    },
    {
        "name": "تفرش",
        "province": "مرکزی",
        "latitude": 34.4139,
        "longitude": 50.055,
        "id": 3
    },
    {
        "name": "خمين",
        "province": "مرکزی",
        "latitude": 33.38,
        "longitude": 50.4,
        "id": 4
    },
    {
        "name": "دليجان",
        "province": "مرکزی",
        "latitude": 33.59,
        "longitude": 50.41,
        "id": 5
    },
    {
        "name": "ساوه",
        "province": "مرکزی",
        "latitude": 35.117,
        "longitude": 50.2124,
        "id": 6
    },
    {
        "name": "محلات",
        "province": "مرکزی",
        "latitude": 33.54,
        "longitude": 50.28,
        "id": 7
    },
    {
        "name": "شازند",
        "province": "مرکزی",
        "latitude": 33.5616,
        "longitude": 49.25,
        "id": 8
    },
    {
        "name": "بندرعباس",
        "province": "هرمزگان",
        "latitude": 56.266,
        "longitude": 27.18,
        "id": 1
    },
    {
        "name": "قشم",
        "province": "هرمزگان",
        "latitude": 26.58,
        "longitude": 56.17,
        "id": 2
    },
    {
        "name": "كيش",
        "province": "هرمزگان",
        "latitude": 26.32,
        "longitude": 53.58,
        "id": 3
    },
    {
        "name": "بندر لنگه",
        "province": "هرمزگان",
        "latitude": 26.34,
        "longitude": 54.52,
        "id": 4
    },
    {
        "name": "بستك",
        "province": "هرمزگان",
        "latitude": 27.16,
        "longitude": 54.26,
        "id": 5
    },
    {
        "name": "حاجي آباد",
        "province": "هرمزگان",
        "latitude": 33.3622,
        "longitude": 59.5957,
        "id": 6
    },
    {
        "name": "دهبارز",
        "province": "هرمزگان",
        "latitude": 27.254,
        "longitude": 57.126,
        "id": 7
    },
    {
        "name": "ميناب",
        "province": "هرمزگان",
        "latitude": 27.7,
        "longitude": 57.6,
        "id": 8
    },
    {
        "name": "بندر جاسك",
        "province": "هرمزگان",
        "latitude": 25.3839,
        "longitude": 57.4624,
        "id": 9
    },
    {
        "name": "بندر خمیر",
        "province": "هرمزگان",
        "latitude": 26.57,
        "longitude": 55.35,
        "id": 10
    },
    {
        "name": "قشم",
        "province": "هرمزگان",
        "latitude": 26.58,
        "longitude": 56.17,
        "id": 11
    },
    {
        "name": "همدان",
        "province": "همدان",
        "latitude": 34.47,
        "longitude": 48.3,
        "id": 1
    },
    {
        "name": "ملاير",
        "province": "همدان",
        "latitude": 34.18,
        "longitude": 48.49,
        "id": 2
    },
    {
        "name": "نهاوند",
        "province": "همدان",
        "latitude": 34.13,
        "longitude": 48.21,
        "id": 3
    },
    {
        "name": "رزن",
        "province": "همدان",
        "latitude": 49.033,
        "longitude": 35.39,
        "id": 4
    },
    {
        "name": "اسدآباد",
        "province": "همدان",
        "latitude": 48.123,
        "longitude": 34.783,
        "id": 5
    },
    {
        "name": "بهار",
        "province": "همدان",
        "latitude": 34.5425,
        "longitude": 48.2622,
        "id": 6
    },
    {
        "name": "يزد",
        "province": "يزد",
        "latitude": 31.53,
        "longitude": 54.21,
        "id": 1
    },
    {
        "name": "تفت",
        "province": "يزد",
        "latitude": 31.45,
        "longitude": 54.12,
        "id": 2
    },
    {
        "name": "اردكان",
        "province": "يزد",
        "latitude": 32.2,
        "longitude": 53.59,
        "id": 3
    },
    {
        "name": "ابركوه",
        "province": "يزد",
        "latitude": 31.741,
        "longitude": 53.1652,
        "id": 4
    },
    {
        "name": "ميبد",
        "province": "يزد",
        "latitude": 32.14,
        "longitude": 54.1,
        "id": 5
    },
    {
        "name": "بافق",
        "province": "يزد",
        "latitude": 31.36,
        "longitude": 55.24,
        "id": 7
    },
    {
        "name": "مهريز",
        "province": "يزد",
        "latitude": 31.359,
        "longitude": 54.252,
        "id": 8
    },
    {
        "name": "اشكذر",
        "province": "يزد",
        "latitude": 31.5938,
        "longitude": 54.122,
        "id": 9
    },
    {
        "name": "هرات",
        "province": "يزد",
        "latitude": 30.4,
        "longitude": 54.22,
        "id": 10
    },
    {
        "name": "خضرآباد",
        "province": "يزد",
        "latitude": 53.953,
        "longitude": 31.866,
        "id": 11
    },
    {
        "name": "زارچ",
        "province": "يزد",
        "latitude": 54.26,
        "longitude": 31.979,
        "id": 12
    }
]